header: 
  seq: 9059
  stamp: 
    secs: 1602495493
    nsecs: 680494559
  frame_id: ''
name: [Actuator1, Actuator2, Actuator9, Actuator10, Actuator29, Actuator65]
position: [0.04640120267868042, -0.42864990234375, -0.14349365234375, -0.0843505859375, 0.27763354778289795, -0.0836181640625]
velocity: []
effort: []
---
header: 
  seq: 9060
  stamp: 
    secs: 1602495493
    nsecs: 690584203
  frame_id: ''
name: [Actuator1, Actuator2, Actuator9, Actuator10, Actuator29, Actuator65]
position: [0.046586692333221436, -0.42864990234375, -0.14337158203125, -0.084228515625, 0.27763354778289795, -0.08355712890625]
velocity: []
effort: []
---
header: 
  seq: 9061
  stamp: 
    secs: 1602495493
    nsecs: 700453035
  frame_id: ''
name: [Actuator1, Actuator2, Actuator9, Actuator10, Actuator29, Actuator65]
position: [0.04652482271194458, -0.4287109375, -0.14337158203125, -0.0843505859375, 0.27763354778289795, -0.08349609375]
velocity: []
effort: []
---
header: 
  seq: 9062
  stamp: 
    secs: 1602495493
    nsecs: 710588499
  frame_id: ''
name: [Actuator1, Actuator2, Actuator9, Actuator10, Actuator29, Actuator65]
position: [0.04640120267868042, -0.42877197265625, -0.14361572265625, -0.08416748046875, 0.277327299118042, -0.08343505859375]
velocity: []
effort: []
---
header: 
  seq: 9063
  stamp: 
    secs: 1602495493
    nsecs: 720481929
  frame_id: ''
name: [Actuator1, Actuator2, Actuator9, Actuator10, Actuator29, Actuator65]
position: [0.046586692333221436, -0.4287109375, -0.14361572265625, -0.084228515625, 0.2776948809623718, -0.08349609375]
velocity: []
effort: []
---
header: 
  seq: 9064
  stamp: 
    secs: 1602495493
    nsecs: 730582536
  frame_id: ''
name: [Actuator1, Actuator2, Actuator9, Actuator10, Actuator29, Actuator65]
position: [0.04652482271194458, -0.428466796875, -0.143310546875, -0.08416748046875, 0.27763354778289795, -0.08355712890625]
velocity: []
effort: []
---
header: 
  seq: 9065
  stamp: 
    secs: 1602495493
    nsecs: 740518456
  frame_id: ''
name: [Actuator1, Actuator2, Actuator9, Actuator10, Actuator29, Actuator65]
position: [0.0464630126953125, -0.4285888671875, -0.14349365234375, -0.0843505859375, 0.27763354778289795, -0.08349609375]
velocity: []
effort: []
---
header: 
  seq: 9066
  stamp: 
    secs: 1602495493
    nsecs: 750533952
  frame_id: ''
name: [Actuator1, Actuator2, Actuator9, Actuator10, Actuator29, Actuator65]
position: [0.0464630126953125, -0.428466796875, -0.14349365234375, -0.08441162109375, 0.27763354778289795, -0.08349609375]
velocity: []
effort: []
---
header: 
  seq: 9067
  stamp: 
    secs: 1602495493
    nsecs: 760494220
  frame_id: ''
name: [Actuator1, Actuator2, Actuator9, Actuator10, Actuator29, Actuator65]
position: [0.0464630126953125, -0.4285888671875, -0.1435546875, -0.0843505859375, 0.2775723338127136, -0.08355712890625]
velocity: []
effort: []
---
header: 
  seq: 9068
  stamp: 
    secs: 1602495493
    nsecs: 770572980
  frame_id: ''
name: [Actuator1, Actuator2, Actuator9, Actuator10, Actuator29, Actuator65]
position: [0.04652482271194458, -0.4285888671875, -0.14337158203125, -0.08416748046875, 0.2775723338127136, -0.0833740234375]
velocity: []
effort: []
---
header: 
  seq: 9069
  stamp: 
    secs: 1602495493
    nsecs: 780531045
  frame_id: ''
name: [Actuator1, Actuator2, Actuator9, Actuator10, Actuator29, Actuator65]
position: [0.0464630126953125, -0.42852783203125, -0.1435546875, -0.084228515625, 0.2775110602378845, -0.08349609375]
velocity: []
effort: []
---
header: 
  seq: 9070
  stamp: 
    secs: 1602495493
    nsecs: 790532195
  frame_id: ''
name: [Actuator1, Actuator2, Actuator9, Actuator10, Actuator29, Actuator65]
position: [0.046586692333221436, -0.428466796875, -0.14349365234375, -0.0841064453125, 0.27763354778289795, -0.0836181640625]
velocity: []
effort: []
---
header: 
  seq: 9071
  stamp: 
    secs: 1602495493
    nsecs: 800546608
  frame_id: ''
name: [Actuator1, Actuator2, Actuator9, Actuator10, Actuator29, Actuator65]
position: [0.04664844274520874, -0.4287109375, -0.14361572265625, -0.084228515625, 0.2776948809623718, -0.0836181640625]
velocity: []
effort: []
---
header: 
  seq: 9072
  stamp: 
    secs: 1602495493
    nsecs: 810532339
  frame_id: ''
name: [Actuator1, Actuator2, Actuator9, Actuator10, Actuator29, Actuator65]
position: [0.046586692333221436, -0.42852783203125, -0.1435546875, -0.08441162109375, 0.2775110602378845, -0.08343505859375]
velocity: []
effort: []
---
header: 
  seq: 9073
  stamp: 
    secs: 1602495493
    nsecs: 820492073
  frame_id: ''
name: [Actuator1, Actuator2, Actuator9, Actuator10, Actuator29, Actuator65]
position: [0.046586692333221436, -0.4285888671875, -0.1435546875, -0.0843505859375, 0.2775723338127136, -0.08349609375]
velocity: []
effort: []
---
header: 
  seq: 9074
  stamp: 
    secs: 1602495493
    nsecs: 830530933
  frame_id: ''
name: [Actuator1, Actuator2, Actuator9, Actuator10, Actuator29, Actuator65]
position: [0.04671037197113037, -0.4285888671875, -0.1435546875, -0.08428955078125, 0.27763354778289795, -0.08355712890625]
velocity: []
effort: []
---
header: 
  seq: 9075
  stamp: 
    secs: 1602495493
    nsecs: 840579076
  frame_id: ''
name: [Actuator1, Actuator2, Actuator9, Actuator10, Actuator29, Actuator65]
position: [0.04664844274520874, -0.4287109375, -0.14373779296875, -0.0843505859375, 0.27763354778289795, -0.08349609375]
velocity: []
effort: []
---
header: 
  seq: 9076
  stamp: 
    secs: 1602495493
    nsecs: 850521709
  frame_id: ''
name: [Actuator1, Actuator2, Actuator9, Actuator10, Actuator29, Actuator65]
position: [0.046586692333221436, -0.4285888671875, -0.14349365234375, -0.0843505859375, 0.27763354778289795, -0.08355712890625]
velocity: []
effort: []
---
header: 
  seq: 9077
  stamp: 
    secs: 1602495493
    nsecs: 860606627
  frame_id: ''
name: [Actuator1, Actuator2, Actuator9, Actuator10, Actuator29, Actuator65]
position: [0.04652482271194458, -0.42852783203125, -0.1435546875, -0.08416748046875, 0.2774498462677002, -0.0836181640625]
velocity: []
effort: []
---
header: 
  seq: 9078
  stamp: 
    secs: 1602495493
    nsecs: 870538507
  frame_id: ''
name: [Actuator1, Actuator2, Actuator9, Actuator10, Actuator29, Actuator65]
position: [0.046586692333221436, -0.42864990234375, -0.14373779296875, -0.08416748046875, 0.2774498462677002, -0.08355712890625]
velocity: []
effort: []
---
header: 
  seq: 9079
  stamp: 
    secs: 1602495493
    nsecs: 880555169
  frame_id: ''
name: [Actuator1, Actuator2, Actuator9, Actuator10, Actuator29, Actuator65]
position: [0.04652482271194458, -0.42877197265625, -0.14349365234375, -0.0843505859375, 0.27763354778289795, -0.08349609375]
velocity: []
effort: []
---
header: 
  seq: 9080
  stamp: 
    secs: 1602495493
    nsecs: 890532254
  frame_id: ''
name: [Actuator1, Actuator2, Actuator9, Actuator10, Actuator29, Actuator65]
position: [0.04652482271194458, -0.42852783203125, -0.14349365234375, -0.08428955078125, 0.2776948809623718, -0.0836181640625]
velocity: []
effort: []
---
header: 
  seq: 9081
  stamp: 
    secs: 1602495493
    nsecs: 900487142
  frame_id: ''
name: [Actuator1, Actuator2, Actuator9, Actuator10, Actuator29, Actuator65]
position: [0.04640120267868042, -0.4287109375, -0.14361572265625, -0.08428955078125, 0.27763354778289795, -0.08355712890625]
velocity: []
effort: []
---
header: 
  seq: 9082
  stamp: 
    secs: 1602495493
    nsecs: 910553871
  frame_id: ''
name: [Actuator1, Actuator2, Actuator9, Actuator10, Actuator29, Actuator65]
position: [0.046586692333221436, -0.4285888671875, -0.14361572265625, -0.0843505859375, 0.2777560353279114, -0.0836181640625]
velocity: []
effort: []
---
header: 
  seq: 9083
  stamp: 
    secs: 1602495493
    nsecs: 920550262
  frame_id: ''
name: [Actuator1, Actuator2, Actuator9, Actuator10, Actuator29, Actuator65]
position: [0.0464630126953125, -0.4285888671875, -0.14349365234375, -0.08416748046875, 0.27763354778289795, -0.0833740234375]
velocity: []
effort: []
---
header: 
  seq: 9084
  stamp: 
    secs: 1602495493
    nsecs: 930530995
  frame_id: ''
name: [Actuator1, Actuator2, Actuator9, Actuator10, Actuator29, Actuator65]
position: [0.04652482271194458, -0.42852783203125, -0.14349365234375, -0.08416748046875, 0.2775110602378845, -0.08355712890625]
velocity: []
effort: []
---
header: 
  seq: 9085
  stamp: 
    secs: 1602495493
    nsecs: 940493865
  frame_id: ''
name: [Actuator1, Actuator2, Actuator9, Actuator10, Actuator29, Actuator65]
position: [0.046586692333221436, -0.4287109375, -0.143310546875, -0.08416748046875, 0.2775723338127136, -0.08349609375]
velocity: []
effort: []
---
header: 
  seq: 9086
  stamp: 
    secs: 1602495493
    nsecs: 950531010
  frame_id: ''
name: [Actuator1, Actuator2, Actuator9, Actuator10, Actuator29, Actuator65]
position: [0.04640120267868042, -0.42877197265625, -0.1436767578125, -0.0843505859375, 0.2776948809623718, -0.08349609375]
velocity: []
effort: []
---
header: 
  seq: 9087
  stamp: 
    secs: 1602495493
    nsecs: 960535349
  frame_id: ''
name: [Actuator1, Actuator2, Actuator9, Actuator10, Actuator29, Actuator65]
position: [0.04664844274520874, -0.428466796875, -0.143310546875, -0.084228515625, 0.27763354778289795, -0.08349609375]
velocity: []
effort: []
---
header: 
  seq: 9088
  stamp: 
    secs: 1602495493
    nsecs: 970540345
  frame_id: ''
name: [Actuator1, Actuator2, Actuator9, Actuator10, Actuator29, Actuator65]
position: [0.0464630126953125, -0.4285888671875, -0.1435546875, -0.0843505859375, 0.2775723338127136, -0.08349609375]
velocity: []
effort: []
---
header: 
  seq: 9089
  stamp: 
    secs: 1602495493
    nsecs: 980570950
  frame_id: ''
name: [Actuator1, Actuator2, Actuator9, Actuator10, Actuator29, Actuator65]
position: [0.04640120267868042, -0.42864990234375, -0.14361572265625, -0.08441162109375, 0.27763354778289795, -0.08349609375]
velocity: []
effort: []
---
header: 
  seq: 9090
  stamp: 
    secs: 1602495493
    nsecs: 990535066
  frame_id: ''
name: [Actuator1, Actuator2, Actuator9, Actuator10, Actuator29, Actuator65]
position: [0.046586692333221436, -0.42852783203125, -0.1434326171875, -0.08416748046875, 0.2777560353279114, -0.08349609375]
velocity: []
effort: []
---
header: 
  seq: 9091
  stamp: 
    secs: 1602495494
    nsecs:    511490
  frame_id: ''
name: [Actuator1, Actuator2, Actuator9, Actuator10, Actuator29, Actuator65]
position: [0.04664844274520874, -0.4285888671875, -0.1435546875, -0.0843505859375, 0.27763354778289795, -0.08355712890625]
velocity: []
effort: []
---
header: 
  seq: 9092
  stamp: 
    secs: 1602495494
    nsecs:  10538054
  frame_id: ''
name: [Actuator1, Actuator2, Actuator9, Actuator10, Actuator29, Actuator65]
position: [0.04664844274520874, -0.4288330078125, -0.14361572265625, -0.084228515625, 0.2777560353279114, -0.08343505859375]
velocity: []
effort: []
---
header: 
  seq: 9093
  stamp: 
    secs: 1602495494
    nsecs:  20485413
  frame_id: ''
name: [Actuator1, Actuator2, Actuator9, Actuator10, Actuator29, Actuator65]
position: [0.046586692333221436, -0.4285888671875, -0.14349365234375, -0.084228515625, 0.2775110602378845, -0.08355712890625]
velocity: []
effort: []
---
header: 
  seq: 9094
  stamp: 
    secs: 1602495494
    nsecs:  30531608
  frame_id: ''
name: [Actuator1, Actuator2, Actuator9, Actuator10, Actuator29, Actuator65]
position: [0.04652482271194458, -0.42864990234375, -0.1436767578125, -0.0843505859375, 0.2777560353279114, -0.08355712890625]
velocity: []
effort: []
---
header: 
  seq: 9095
  stamp: 
    secs: 1602495494
    nsecs:  40537754
  frame_id: ''
name: [Actuator1, Actuator2, Actuator9, Actuator10, Actuator29, Actuator65]
position: [0.04671037197113037, -0.428466796875, -0.14349365234375, -0.084228515625, 0.2775110602378845, -0.08343505859375]
velocity: []
effort: []
---
header: 
  seq: 9096
  stamp: 
    secs: 1602495494
    nsecs:  50532454
  frame_id: ''
name: [Actuator1, Actuator2, Actuator9, Actuator10, Actuator29, Actuator65]
position: [0.04652482271194458, -0.4285888671875, -0.1434326171875, -0.084228515625, 0.2775723338127136, -0.08367919921875]
velocity: []
effort: []
---
header: 
  seq: 9097
  stamp: 
    secs: 1602495494
    nsecs:  60531442
  frame_id: ''
name: [Actuator1, Actuator2, Actuator9, Actuator10, Actuator29, Actuator65]
position: [0.046586692333221436, -0.42840576171875, -0.14349365234375, -0.084228515625, 0.2775723338127136, -0.08355712890625]
velocity: []
effort: []
---
header: 
  seq: 9098
  stamp: 
    secs: 1602495494
    nsecs:  70492788
  frame_id: ''
name: [Actuator1, Actuator2, Actuator9, Actuator10, Actuator29, Actuator65]
position: [0.046586692333221436, -0.42840576171875, -0.14373779296875, -0.0843505859375, 0.2776948809623718, -0.0833740234375]
velocity: []
effort: []
---
header: 
  seq: 9099
  stamp: 
    secs: 1602495494
    nsecs:  80532901
  frame_id: ''
name: [Actuator1, Actuator2, Actuator9, Actuator10, Actuator29, Actuator65]
position: [0.04652482271194458, -0.4285888671875, -0.1435546875, -0.0843505859375, 0.2776948809623718, -0.08355712890625]
velocity: []
effort: []
---
header: 
  seq: 9100
  stamp: 
    secs: 1602495494
    nsecs:  90577792
  frame_id: ''
name: [Actuator1, Actuator2, Actuator9, Actuator10, Actuator29, Actuator65]
position: [0.04664844274520874, -0.42864990234375, -0.1435546875, -0.084228515625, 0.27763354778289795, -0.08355712890625]
velocity: []
effort: []
---
header: 
  seq: 9101
  stamp: 
    secs: 1602495494
    nsecs: 100521077
  frame_id: ''
name: [Actuator1, Actuator2, Actuator9, Actuator10, Actuator29, Actuator65]
position: [0.0464630126953125, -0.42864990234375, -0.14349365234375, -0.08404541015625, 0.2775723338127136, -0.08349609375]
velocity: []
effort: []
---
header: 
  seq: 9102
  stamp: 
    secs: 1602495494
    nsecs: 110533184
  frame_id: ''
name: [Actuator1, Actuator2, Actuator9, Actuator10, Actuator29, Actuator65]
position: [0.046586692333221436, -0.428466796875, -0.14349365234375, -0.0843505859375, 0.27763354778289795, -0.08343505859375]
velocity: []
effort: []
---
header: 
  seq: 9103
  stamp: 
    secs: 1602495494
    nsecs: 120519306
  frame_id: ''
name: [Actuator1, Actuator2, Actuator9, Actuator10, Actuator29, Actuator65]
position: [0.04652482271194458, -0.4287109375, -0.1434326171875, -0.08428955078125, 0.2775110602378845, -0.08355712890625]
velocity: []
effort: []
---
header: 
  seq: 9104
  stamp: 
    secs: 1602495494
    nsecs: 130533374
  frame_id: ''
name: [Actuator1, Actuator2, Actuator9, Actuator10, Actuator29, Actuator65]
position: [0.04664844274520874, -0.4285888671875, -0.1435546875, -0.08428955078125, 0.2776948809623718, -0.0836181640625]
velocity: []
effort: []
---
header: 
  seq: 9105
  stamp: 
    secs: 1602495494
    nsecs: 140534465
  frame_id: ''
name: [Actuator1, Actuator2, Actuator9, Actuator10, Actuator29, Actuator65]
position: [0.046586692333221436, -0.4285888671875, -0.14349365234375, -0.084228515625, 0.2774498462677002, -0.0833740234375]
velocity: []
effort: []
---
header: 
  seq: 9106
  stamp: 
    secs: 1602495494
    nsecs: 150532887
  frame_id: ''
name: [Actuator1, Actuator2, Actuator9, Actuator10, Actuator29, Actuator65]
position: [0.046586692333221436, -0.4285888671875, -0.143310546875, -0.0841064453125, 0.27763354778289795, -0.08343505859375]
velocity: []
effort: []
---
header: 
  seq: 9107
  stamp: 
    secs: 1602495494
    nsecs: 160522322
  frame_id: ''
name: [Actuator1, Actuator2, Actuator9, Actuator10, Actuator29, Actuator65]
position: [0.04652482271194458, -0.4285888671875, -0.1435546875, -0.08416748046875, 0.2775723338127136, -0.08355712890625]
velocity: []
effort: []
---
header: 
  seq: 9108
  stamp: 
    secs: 1602495494
    nsecs: 170532814
  frame_id: ''
name: [Actuator1, Actuator2, Actuator9, Actuator10, Actuator29, Actuator65]
position: [0.046586692333221436, -0.4287109375, -0.14349365234375, -0.0841064453125, 0.2778173089027405, -0.0836181640625]
velocity: []
effort: []
---
header: 
  seq: 9109
  stamp: 
    secs: 1602495494
    nsecs: 180587229
  frame_id: ''
name: [Actuator1, Actuator2, Actuator9, Actuator10, Actuator29, Actuator65]
position: [0.04652482271194458, -0.42852783203125, -0.14349365234375, -0.08428955078125, 0.27763354778289795, -0.08367919921875]
velocity: []
effort: []
---
header: 
  seq: 9110
  stamp: 
    secs: 1602495494
    nsecs: 190460426
  frame_id: ''
name: [Actuator1, Actuator2, Actuator9, Actuator10, Actuator29, Actuator65]
position: [0.04671037197113037, -0.42852783203125, -0.14337158203125, -0.0843505859375, 0.27763354778289795, -0.083740234375]
velocity: []
effort: []
---
header: 
  seq: 9111
  stamp: 
    secs: 1602495494
    nsecs: 200464833
  frame_id: ''
name: [Actuator1, Actuator2, Actuator9, Actuator10, Actuator29, Actuator65]
position: [0.04652482271194458, -0.4285888671875, -0.14337158203125, -0.0843505859375, 0.2775723338127136, -0.08343505859375]
velocity: []
effort: []
---
header: 
  seq: 9112
  stamp: 
    secs: 1602495494
    nsecs: 210573542
  frame_id: ''
name: [Actuator1, Actuator2, Actuator9, Actuator10, Actuator29, Actuator65]
position: [0.04640120267868042, -0.4285888671875, -0.14349365234375, -0.0843505859375, 0.2775110602378845, -0.08355712890625]
velocity: []
effort: []
---
header: 
  seq: 9113
  stamp: 
    secs: 1602495494
    nsecs: 220507395
  frame_id: ''
name: [Actuator1, Actuator2, Actuator9, Actuator10, Actuator29, Actuator65]
position: [0.046586692333221436, -0.42852783203125, -0.1435546875, -0.084228515625, 0.2775723338127136, -0.08355712890625]
velocity: []
effort: []
---
header: 
  seq: 9114
  stamp: 
    secs: 1602495494
    nsecs: 230531159
  frame_id: ''
name: [Actuator1, Actuator2, Actuator9, Actuator10, Actuator29, Actuator65]
position: [0.046339452266693115, -0.4285888671875, -0.14349365234375, -0.08441162109375, 0.27763354778289795, -0.0836181640625]
velocity: []
effort: []
---
header: 
  seq: 9115
  stamp: 
    secs: 1602495494
    nsecs: 240600322
  frame_id: ''
name: [Actuator1, Actuator2, Actuator9, Actuator10, Actuator29, Actuator65]
position: [0.04664844274520874, -0.4287109375, -0.14337158203125, -0.08416748046875, 0.2775723338127136, -0.08343505859375]
velocity: []
effort: []
---
header: 
  seq: 9116
  stamp: 
    secs: 1602495494
    nsecs: 250543547
  frame_id: ''
name: [Actuator1, Actuator2, Actuator9, Actuator10, Actuator29, Actuator65]
position: [0.04652482271194458, -0.428466796875, -0.14349365234375, -0.084228515625, 0.2776948809623718, -0.08355712890625]
velocity: []
effort: []
---
header: 
  seq: 9117
  stamp: 
    secs: 1602495494
    nsecs: 260548827
  frame_id: ''
name: [Actuator1, Actuator2, Actuator9, Actuator10, Actuator29, Actuator65]
position: [0.04652482271194458, -0.42864990234375, -0.143798828125, -0.0843505859375, 0.2776948809623718, -0.08355712890625]
velocity: []
effort: []
---
header: 
  seq: 9118
  stamp: 
    secs: 1602495494
    nsecs: 270487104
  frame_id: ''
name: [Actuator1, Actuator2, Actuator9, Actuator10, Actuator29, Actuator65]
position: [0.04640120267868042, -0.42840576171875, -0.14349365234375, -0.084228515625, 0.27763354778289795, -0.08355712890625]
velocity: []
effort: []
---
header: 
  seq: 9119
  stamp: 
    secs: 1602495494
    nsecs: 280533349
  frame_id: ''
name: [Actuator1, Actuator2, Actuator9, Actuator10, Actuator29, Actuator65]
position: [0.0464630126953125, -0.42840576171875, -0.14361572265625, -0.0843505859375, 0.27763354778289795, -0.08355712890625]
velocity: []
effort: []
---
header: 
  seq: 9120
  stamp: 
    secs: 1602495494
    nsecs: 290495559
  frame_id: ''
name: [Actuator1, Actuator2, Actuator9, Actuator10, Actuator29, Actuator65]
position: [0.0464630126953125, -0.42840576171875, -0.14349365234375, -0.08428955078125, 0.27763354778289795, -0.08355712890625]
velocity: []
effort: []
---
header: 
  seq: 9121
  stamp: 
    secs: 1602495494
    nsecs: 300443859
  frame_id: ''
name: [Actuator1, Actuator2, Actuator9, Actuator10, Actuator29, Actuator65]
position: [0.04664844274520874, -0.4287109375, -0.1435546875, -0.084228515625, 0.27763354778289795, -0.0833740234375]
velocity: []
effort: []
---
header: 
  seq: 9122
  stamp: 
    secs: 1602495494
    nsecs: 310582908
  frame_id: ''
name: [Actuator1, Actuator2, Actuator9, Actuator10, Actuator29, Actuator65]
position: [0.04664844274520874, -0.42840576171875, -0.1435546875, -0.08428955078125, 0.2776948809623718, -0.08349609375]
velocity: []
effort: []
---
header: 
  seq: 9123
  stamp: 
    secs: 1602495494
    nsecs: 320535754
  frame_id: ''
name: [Actuator1, Actuator2, Actuator9, Actuator10, Actuator29, Actuator65]
position: [0.046586692333221436, -0.428466796875, -0.14337158203125, -0.08428955078125, 0.2775110602378845, -0.08343505859375]
velocity: []
effort: []
---
header: 
  seq: 9124
  stamp: 
    secs: 1602495494
    nsecs: 330532952
  frame_id: ''
name: [Actuator1, Actuator2, Actuator9, Actuator10, Actuator29, Actuator65]
position: [0.04640120267868042, -0.4287109375, -0.1435546875, -0.0843505859375, 0.2775723338127136, -0.083251953125]
velocity: []
effort: []
---
header: 
  seq: 9125
  stamp: 
    secs: 1602495494
    nsecs: 340532232
  frame_id: ''
name: [Actuator1, Actuator2, Actuator9, Actuator10, Actuator29, Actuator65]
position: [0.046586692333221436, -0.4288330078125, -0.1436767578125, -0.084228515625, 0.277327299118042, -0.08331298828125]
velocity: []
effort: []
---
header: 
  seq: 9126
  stamp: 
    secs: 1602495494
    nsecs: 350514203
  frame_id: ''
name: [Actuator1, Actuator2, Actuator9, Actuator10, Actuator29, Actuator65]
position: [0.046586692333221436, -0.42852783203125, -0.1436767578125, -0.0841064453125, 0.2778173089027405, -0.0836181640625]
velocity: []
effort: []
---
header: 
  seq: 9127
  stamp: 
    secs: 1602495494
    nsecs: 360551031
  frame_id: ''
name: [Actuator1, Actuator2, Actuator9, Actuator10, Actuator29, Actuator65]
position: [0.046277642250061035, -0.4288330078125, -0.14361572265625, -0.08428955078125, 0.2777560353279114, -0.08355712890625]
velocity: []
effort: []
---
header: 
  seq: 9128
  stamp: 
    secs: 1602495494
    nsecs: 370484035
  frame_id: ''
name: [Actuator1, Actuator2, Actuator9, Actuator10, Actuator29, Actuator65]
position: [0.04671037197113037, -0.4285888671875, -0.1436767578125, -0.08404541015625, 0.27763354778289795, -0.08343505859375]
velocity: []
effort: []
---
header: 
  seq: 9129
  stamp: 
    secs: 1602495494
    nsecs: 380451751
  frame_id: ''
name: [Actuator1, Actuator2, Actuator9, Actuator10, Actuator29, Actuator65]
position: [0.046339452266693115, -0.42852783203125, -0.14361572265625, -0.08404541015625, 0.2775110602378845, -0.08343505859375]
velocity: []
effort: []
---
header: 
  seq: 9130
  stamp: 
    secs: 1602495494
    nsecs: 390599371
  frame_id: ''
name: [Actuator1, Actuator2, Actuator9, Actuator10, Actuator29, Actuator65]
position: [0.04652482271194458, -0.4285888671875, -0.1435546875, -0.084228515625, 0.2775723338127136, -0.08343505859375]
velocity: []
effort: []
---
header: 
  seq: 9131
  stamp: 
    secs: 1602495494
    nsecs: 400539678
  frame_id: ''
name: [Actuator1, Actuator2, Actuator9, Actuator10, Actuator29, Actuator65]
position: [0.04664844274520874, -0.428466796875, -0.143310546875, -0.08416748046875, 0.2778785228729248, -0.08355712890625]
velocity: []
effort: []
---
header: 
  seq: 9132
  stamp: 
    secs: 1602495494
    nsecs: 410500210
  frame_id: ''
name: [Actuator1, Actuator2, Actuator9, Actuator10, Actuator29, Actuator65]
position: [0.046339452266693115, -0.42864990234375, -0.1435546875, -0.0843505859375, 0.2777560353279114, -0.08349609375]
velocity: []
effort: []
---
header: 
  seq: 9133
  stamp: 
    secs: 1602495494
    nsecs: 420581927
  frame_id: ''
name: [Actuator1, Actuator2, Actuator9, Actuator10, Actuator29, Actuator65]
position: [0.0464630126953125, -0.42852783203125, -0.14337158203125, -0.08441162109375, 0.2774498462677002, -0.0836181640625]
velocity: []
effort: []
---
header: 
  seq: 9134
  stamp: 
    secs: 1602495494
    nsecs: 430531905
  frame_id: ''
name: [Actuator1, Actuator2, Actuator9, Actuator10, Actuator29, Actuator65]
position: [0.04652482271194458, -0.4285888671875, -0.14337158203125, -0.08441162109375, 0.2775110602378845, -0.08349609375]
velocity: []
effort: []
---
header: 
  seq: 9135
  stamp: 
    secs: 1602495494
    nsecs: 440617889
  frame_id: ''
name: [Actuator1, Actuator2, Actuator9, Actuator10, Actuator29, Actuator65]
position: [0.04671037197113037, -0.42840576171875, -0.14349365234375, -0.084228515625, 0.2775723338127136, -0.08367919921875]
velocity: []
effort: []
---
header: 
  seq: 9136
  stamp: 
    secs: 1602495494
    nsecs: 450608358
  frame_id: ''
name: [Actuator1, Actuator2, Actuator9, Actuator10, Actuator29, Actuator65]
position: [0.04671037197113037, -0.42828369140625, -0.1435546875, -0.08416748046875, 0.27763354778289795, -0.08343505859375]
velocity: []
effort: []
---
header: 
  seq: 9137
  stamp: 
    secs: 1602495494
    nsecs: 460598764
  frame_id: ''
name: [Actuator1, Actuator2, Actuator9, Actuator10, Actuator29, Actuator65]
position: [0.04652482271194458, -0.42852783203125, -0.1435546875, -0.084228515625, 0.2777560353279114, -0.08343505859375]
velocity: []
effort: []
---
header: 
  seq: 9138
  stamp: 
    secs: 1602495494
    nsecs: 470599437
  frame_id: ''
name: [Actuator1, Actuator2, Actuator9, Actuator10, Actuator29, Actuator65]
position: [0.046339452266693115, -0.42877197265625, -0.1434326171875, -0.08416748046875, 0.27763354778289795, -0.08355712890625]
velocity: []
effort: []
---
header: 
  seq: 9139
  stamp: 
    secs: 1602495494
    nsecs: 480555329
  frame_id: ''
name: [Actuator1, Actuator2, Actuator9, Actuator10, Actuator29, Actuator65]
position: [0.04652482271194458, -0.4285888671875, -0.14361572265625, -0.08428955078125, 0.2776948809623718, -0.08355712890625]
velocity: []
effort: []
---
header: 
  seq: 9140
  stamp: 
    secs: 1602495494
    nsecs: 490600115
  frame_id: ''
name: [Actuator1, Actuator2, Actuator9, Actuator10, Actuator29, Actuator65]
position: [0.046586692333221436, -0.42852783203125, -0.1435546875, -0.084228515625, 0.27763354778289795, -0.08349609375]
velocity: []
effort: []
---
header: 
  seq: 9141
  stamp: 
    secs: 1602495494
    nsecs: 500600138
  frame_id: ''
name: [Actuator1, Actuator2, Actuator9, Actuator10, Actuator29, Actuator65]
position: [0.04664844274520874, -0.428466796875, -0.14337158203125, -0.0843505859375, 0.2776948809623718, -0.0833740234375]
velocity: []
effort: []
---
header: 
  seq: 9142
  stamp: 
    secs: 1602495494
    nsecs: 510603258
  frame_id: ''
name: [Actuator1, Actuator2, Actuator9, Actuator10, Actuator29, Actuator65]
position: [0.04671037197113037, -0.428466796875, -0.1435546875, -0.08428955078125, 0.27763354778289795, -0.08355712890625]
velocity: []
effort: []
---
header: 
  seq: 9143
  stamp: 
    secs: 1602495494
    nsecs: 520601399
  frame_id: ''
name: [Actuator1, Actuator2, Actuator9, Actuator10, Actuator29, Actuator65]
position: [0.046586692333221436, -0.42852783203125, -0.1435546875, -0.0843505859375, 0.27763354778289795, -0.08355712890625]
velocity: []
effort: []
---
header: 
  seq: 9144
  stamp: 
    secs: 1602495494
    nsecs: 530623780
  frame_id: ''
name: [Actuator1, Actuator2, Actuator9, Actuator10, Actuator29, Actuator65]
position: [0.046586692333221436, -0.4285888671875, -0.14349365234375, -0.08428955078125, 0.2775723338127136, -0.08355712890625]
velocity: []
effort: []
---
header: 
  seq: 9145
  stamp: 
    secs: 1602495494
    nsecs: 540597514
  frame_id: ''
name: [Actuator1, Actuator2, Actuator9, Actuator10, Actuator29, Actuator65]
position: [0.04677218198776245, -0.4287109375, -0.1435546875, -0.08428955078125, 0.2775110602378845, -0.08343505859375]
velocity: []
effort: []
---
header: 
  seq: 9146
  stamp: 
    secs: 1602495494
    nsecs: 550603831
  frame_id: ''
name: [Actuator1, Actuator2, Actuator9, Actuator10, Actuator29, Actuator65]
position: [0.046586692333221436, -0.42864990234375, -0.1434326171875, -0.08428955078125, 0.27763354778289795, -0.08355712890625]
velocity: []
effort: []
---
header: 
  seq: 9147
  stamp: 
    secs: 1602495494
    nsecs: 560602111
  frame_id: ''
name: [Actuator1, Actuator2, Actuator9, Actuator10, Actuator29, Actuator65]
position: [0.0464630126953125, -0.4285888671875, -0.1434326171875, -0.08428955078125, 0.27763354778289795, -0.08349609375]
velocity: []
effort: []
---
header: 
  seq: 9148
  stamp: 
    secs: 1602495494
    nsecs: 570601089
  frame_id: ''
name: [Actuator1, Actuator2, Actuator9, Actuator10, Actuator29, Actuator65]
position: [0.04640120267868042, -0.428466796875, -0.14337158203125, -0.084228515625, 0.2775110602378845, -0.0836181640625]
velocity: []
effort: []
---
header: 
  seq: 9149
  stamp: 
    secs: 1602495494
    nsecs: 580599987
  frame_id: ''
name: [Actuator1, Actuator2, Actuator9, Actuator10, Actuator29, Actuator65]
position: [0.0464630126953125, -0.4287109375, -0.1435546875, -0.084228515625, 0.2777560353279114, -0.08355712890625]
velocity: []
effort: []
---
header: 
  seq: 9150
  stamp: 
    secs: 1602495494
    nsecs: 590596373
  frame_id: ''
name: [Actuator1, Actuator2, Actuator9, Actuator10, Actuator29, Actuator65]
position: [0.04652482271194458, -0.42864990234375, -0.1436767578125, -0.084228515625, 0.2775110602378845, -0.08349609375]
velocity: []
effort: []
---
header: 
  seq: 9151
  stamp: 
    secs: 1602495494
    nsecs: 600449659
  frame_id: ''
name: [Actuator1, Actuator2, Actuator9, Actuator10, Actuator29, Actuator65]
position: [0.0464630126953125, -0.42852783203125, -0.1436767578125, -0.08441162109375, 0.2776948809623718, -0.08355712890625]
velocity: []
effort: []
---
header: 
  seq: 9152
  stamp: 
    secs: 1602495494
    nsecs: 610533325
  frame_id: ''
name: [Actuator1, Actuator2, Actuator9, Actuator10, Actuator29, Actuator65]
position: [0.04652482271194458, -0.428466796875, -0.1435546875, -0.084228515625, 0.2773885726928711, -0.08355712890625]
velocity: []
effort: []
---
header: 
  seq: 9153
  stamp: 
    secs: 1602495494
    nsecs: 620510617
  frame_id: ''
name: [Actuator1, Actuator2, Actuator9, Actuator10, Actuator29, Actuator65]
position: [0.0464630126953125, -0.4287109375, -0.1435546875, -0.08428955078125, 0.27763354778289795, -0.08367919921875]
velocity: []
effort: []
---
header: 
  seq: 9154
  stamp: 
    secs: 1602495494
    nsecs: 630509160
  frame_id: ''
name: [Actuator1, Actuator2, Actuator9, Actuator10, Actuator29, Actuator65]
position: [0.046586692333221436, -0.42864990234375, -0.1436767578125, -0.0843505859375, 0.2776948809623718, -0.0836181640625]
velocity: []
effort: []
---
header: 
  seq: 9155
  stamp: 
    secs: 1602495494
    nsecs: 640535689
  frame_id: ''
name: [Actuator1, Actuator2, Actuator9, Actuator10, Actuator29, Actuator65]
position: [0.04671037197113037, -0.428466796875, -0.1435546875, -0.0841064453125, 0.2777560353279114, -0.0836181640625]
velocity: []
effort: []
---
header: 
  seq: 9156
  stamp: 
    secs: 1602495494
    nsecs: 650556331
  frame_id: ''
name: [Actuator1, Actuator2, Actuator9, Actuator10, Actuator29, Actuator65]
position: [0.046586692333221436, -0.428466796875, -0.1436767578125, -0.08441162109375, 0.27763354778289795, -0.0833740234375]
velocity: []
effort: []
---
header: 
  seq: 9157
  stamp: 
    secs: 1602495494
    nsecs: 660585334
  frame_id: ''
name: [Actuator1, Actuator2, Actuator9, Actuator10, Actuator29, Actuator65]
position: [0.04640120267868042, -0.42864990234375, -0.1435546875, -0.08453369140625, 0.27763354778289795, -0.08349609375]
velocity: []
effort: []
---
header: 
  seq: 9158
  stamp: 
    secs: 1602495494
    nsecs: 670504685
  frame_id: ''
name: [Actuator1, Actuator2, Actuator9, Actuator10, Actuator29, Actuator65]
position: [0.04652482271194458, -0.4287109375, -0.1436767578125, -0.08428955078125, 0.27763354778289795, -0.08367919921875]
velocity: []
effort: []
---
header: 
  seq: 9159
  stamp: 
    secs: 1602495494
    nsecs: 680561372
  frame_id: ''
name: [Actuator1, Actuator2, Actuator9, Actuator10, Actuator29, Actuator65]
position: [0.04640120267868042, -0.42864990234375, -0.14361572265625, -0.084228515625, 0.27763354778289795, -0.08349609375]
velocity: []
effort: []
---
header: 
  seq: 9160
  stamp: 
    secs: 1602495494
    nsecs: 690532747
  frame_id: ''
name: [Actuator1, Actuator2, Actuator9, Actuator10, Actuator29, Actuator65]
position: [0.04664844274520874, -0.42877197265625, -0.14373779296875, -0.084228515625, 0.27763354778289795, -0.0836181640625]
velocity: []
effort: []
---
header: 
  seq: 9161
  stamp: 
    secs: 1602495494
    nsecs: 700531376
  frame_id: ''
name: [Actuator1, Actuator2, Actuator9, Actuator10, Actuator29, Actuator65]
position: [0.04652482271194458, -0.4285888671875, -0.14361572265625, -0.08416748046875, 0.27763354778289795, -0.08367919921875]
velocity: []
effort: []
---
header: 
  seq: 9162
  stamp: 
    secs: 1602495494
    nsecs: 710533615
  frame_id: ''
name: [Actuator1, Actuator2, Actuator9, Actuator10, Actuator29, Actuator65]
position: [0.0464630126953125, -0.4285888671875, -0.14373779296875, -0.0841064453125, 0.27763354778289795, -0.0833740234375]
velocity: []
effort: []
---
header: 
  seq: 9163
  stamp: 
    secs: 1602495494
    nsecs: 720533829
  frame_id: ''
name: [Actuator1, Actuator2, Actuator9, Actuator10, Actuator29, Actuator65]
position: [0.046586692333221436, -0.42864990234375, -0.1436767578125, -0.084228515625, 0.27763354778289795, -0.08355712890625]
velocity: []
effort: []
---
header: 
  seq: 9164
  stamp: 
    secs: 1602495494
    nsecs: 730597894
  frame_id: ''
name: [Actuator1, Actuator2, Actuator9, Actuator10, Actuator29, Actuator65]
position: [0.046586692333221436, -0.428466796875, -0.14361572265625, -0.08428955078125, 0.2775723338127136, -0.08343505859375]
velocity: []
effort: []
---
header: 
  seq: 9165
  stamp: 
    secs: 1602495494
    nsecs: 740533675
  frame_id: ''
name: [Actuator1, Actuator2, Actuator9, Actuator10, Actuator29, Actuator65]
position: [0.04652482271194458, -0.4287109375, -0.14373779296875, -0.0841064453125, 0.2776948809623718, -0.0833740234375]
velocity: []
effort: []
---
header: 
  seq: 9166
  stamp: 
    secs: 1602495494
    nsecs: 750572726
  frame_id: ''
name: [Actuator1, Actuator2, Actuator9, Actuator10, Actuator29, Actuator65]
position: [0.0464630126953125, -0.42852783203125, -0.14373779296875, -0.08441162109375, 0.27763354778289795, -0.08355712890625]
velocity: []
effort: []
---
header: 
  seq: 9167
  stamp: 
    secs: 1602495494
    nsecs: 760534136
  frame_id: ''
name: [Actuator1, Actuator2, Actuator9, Actuator10, Actuator29, Actuator65]
position: [0.04640120267868042, -0.428466796875, -0.14349365234375, -0.08428955078125, 0.2774498462677002, -0.0836181640625]
velocity: []
effort: []
---
header: 
  seq: 9168
  stamp: 
    secs: 1602495494
    nsecs: 770558323
  frame_id: ''
name: [Actuator1, Actuator2, Actuator9, Actuator10, Actuator29, Actuator65]
position: [0.04640120267868042, -0.428466796875, -0.14361572265625, -0.08428955078125, 0.2776948809623718, -0.08355712890625]
velocity: []
effort: []
---
header: 
  seq: 9169
  stamp: 
    secs: 1602495494
    nsecs: 780540899
  frame_id: ''
name: [Actuator1, Actuator2, Actuator9, Actuator10, Actuator29, Actuator65]
position: [0.04640120267868042, -0.42864990234375, -0.14361572265625, -0.084228515625, 0.2777560353279114, -0.08349609375]
velocity: []
effort: []
---
header: 
  seq: 9170
  stamp: 
    secs: 1602495494
    nsecs: 790533574
  frame_id: ''
name: [Actuator1, Actuator2, Actuator9, Actuator10, Actuator29, Actuator65]
position: [0.04664844274520874, -0.428466796875, -0.14337158203125, -0.08428955078125, 0.2776948809623718, -0.08343505859375]
velocity: []
effort: []
---
header: 
  seq: 9171
  stamp: 
    secs: 1602495494
    nsecs: 800488805
  frame_id: ''
name: [Actuator1, Actuator2, Actuator9, Actuator10, Actuator29, Actuator65]
position: [0.04640120267868042, -0.42864990234375, -0.14349365234375, -0.08447265625, 0.2776948809623718, -0.08343505859375]
velocity: []
effort: []
---
header: 
  seq: 9172
  stamp: 
    secs: 1602495494
    nsecs: 810546698
  frame_id: ''
name: [Actuator1, Actuator2, Actuator9, Actuator10, Actuator29, Actuator65]
position: [0.04664844274520874, -0.428466796875, -0.1435546875, -0.0843505859375, 0.27763354778289795, -0.08355712890625]
velocity: []
effort: []
---
header: 
  seq: 9173
  stamp: 
    secs: 1602495494
    nsecs: 820533001
  frame_id: ''
name: [Actuator1, Actuator2, Actuator9, Actuator10, Actuator29, Actuator65]
position: [0.04652482271194458, -0.42852783203125, -0.14361572265625, -0.08428955078125, 0.27763354778289795, -0.08349609375]
velocity: []
effort: []
---
header: 
  seq: 9174
  stamp: 
    secs: 1602495494
    nsecs: 830446271
  frame_id: ''
name: [Actuator1, Actuator2, Actuator9, Actuator10, Actuator29, Actuator65]
position: [0.04652482271194458, -0.42852783203125, -0.14337158203125, -0.08428955078125, 0.27763354778289795, -0.08343505859375]
velocity: []
effort: []
---
header: 
  seq: 9175
  stamp: 
    secs: 1602495494
    nsecs: 840604978
  frame_id: ''
name: [Actuator1, Actuator2, Actuator9, Actuator10, Actuator29, Actuator65]
position: [0.046586692333221436, -0.42852783203125, -0.14349365234375, -0.08441162109375, 0.2776948809623718, -0.0836181640625]
velocity: []
effort: []
---
header: 
  seq: 9176
  stamp: 
    secs: 1602495494
    nsecs: 850531737
  frame_id: ''
name: [Actuator1, Actuator2, Actuator9, Actuator10, Actuator29, Actuator65]
position: [0.046586692333221436, -0.428466796875, -0.14337158203125, -0.0843505859375, 0.27763354778289795, -0.08343505859375]
velocity: []
effort: []
---
header: 
  seq: 9177
  stamp: 
    secs: 1602495494
    nsecs: 860531900
  frame_id: ''
name: [Actuator1, Actuator2, Actuator9, Actuator10, Actuator29, Actuator65]
position: [0.0464630126953125, -0.42877197265625, -0.1434326171875, -0.08441162109375, 0.27763354778289795, -0.08355712890625]
velocity: []
effort: []
---
header: 
  seq: 9178
  stamp: 
    secs: 1602495494
    nsecs: 870531931
  frame_id: ''
name: [Actuator1, Actuator2, Actuator9, Actuator10, Actuator29, Actuator65]
position: [0.04652482271194458, -0.428466796875, -0.1435546875, -0.08416748046875, 0.27793991565704346, -0.08355712890625]
velocity: []
effort: []
---
header: 
  seq: 9179
  stamp: 
    secs: 1602495494
    nsecs: 880595812
  frame_id: ''
name: [Actuator1, Actuator2, Actuator9, Actuator10, Actuator29, Actuator65]
position: [0.046586692333221436, -0.42864990234375, -0.14361572265625, -0.084228515625, 0.2775110602378845, -0.08343505859375]
velocity: []
effort: []
---
header: 
  seq: 9180
  stamp: 
    secs: 1602495494
    nsecs: 890530978
  frame_id: ''
name: [Actuator1, Actuator2, Actuator9, Actuator10, Actuator29, Actuator65]
position: [0.04652482271194458, -0.428466796875, -0.1434326171875, -0.08428955078125, 0.27763354778289795, -0.0833740234375]
velocity: []
effort: []
---
header: 
  seq: 9181
  stamp: 
    secs: 1602495494
    nsecs: 900540950
  frame_id: ''
name: [Actuator1, Actuator2, Actuator9, Actuator10, Actuator29, Actuator65]
position: [0.046339452266693115, -0.4285888671875, -0.1436767578125, -0.08428955078125, 0.2775110602378845, -0.0836181640625]
velocity: []
effort: []
---
header: 
  seq: 9182
  stamp: 
    secs: 1602495494
    nsecs: 910546798
  frame_id: ''
name: [Actuator1, Actuator2, Actuator9, Actuator10, Actuator29, Actuator65]
position: [0.04671037197113037, -0.42864990234375, -0.14361572265625, -0.0843505859375, 0.2775723338127136, -0.08349609375]
velocity: []
effort: []
---
header: 
  seq: 9183
  stamp: 
    secs: 1602495494
    nsecs: 920555672
  frame_id: ''
name: [Actuator1, Actuator2, Actuator9, Actuator10, Actuator29, Actuator65]
position: [0.0464630126953125, -0.42852783203125, -0.14361572265625, -0.08416748046875, 0.2775723338127136, -0.0833740234375]
velocity: []
effort: []
---
header: 
  seq: 9184
  stamp: 
    secs: 1602495494
    nsecs: 930554445
  frame_id: ''
name: [Actuator1, Actuator2, Actuator9, Actuator10, Actuator29, Actuator65]
position: [0.04652482271194458, -0.4285888671875, -0.14349365234375, -0.0841064453125, 0.2777560353279114, -0.08349609375]
velocity: []
effort: []
---
header: 
  seq: 9185
  stamp: 
    secs: 1602495494
    nsecs: 940535954
  frame_id: ''
name: [Actuator1, Actuator2, Actuator9, Actuator10, Actuator29, Actuator65]
position: [0.04652482271194458, -0.42852783203125, -0.1435546875, -0.08441162109375, 0.2776948809623718, -0.08367919921875]
velocity: []
effort: []
---
header: 
  seq: 9186
  stamp: 
    secs: 1602495494
    nsecs: 950558702
  frame_id: ''
name: [Actuator1, Actuator2, Actuator9, Actuator10, Actuator29, Actuator65]
position: [0.04652482271194458, -0.4285888671875, -0.14337158203125, -0.084228515625, 0.2775723338127136, -0.0833740234375]
velocity: []
effort: []
---
header: 
  seq: 9187
  stamp: 
    secs: 1602495494
    nsecs: 960527113
  frame_id: ''
name: [Actuator1, Actuator2, Actuator9, Actuator10, Actuator29, Actuator65]
position: [0.04652482271194458, -0.428466796875, -0.1434326171875, -0.0843505859375, 0.2776948809623718, -0.08349609375]
velocity: []
effort: []
---
header: 
  seq: 9188
  stamp: 
    secs: 1602495494
    nsecs: 970532020
  frame_id: ''
name: [Actuator1, Actuator2, Actuator9, Actuator10, Actuator29, Actuator65]
position: [0.04652482271194458, -0.4285888671875, -0.1434326171875, -0.08428955078125, 0.2776948809623718, -0.08343505859375]
velocity: []
effort: []
---
header: 
  seq: 9189
  stamp: 
    secs: 1602495494
    nsecs: 980532961
  frame_id: ''
name: [Actuator1, Actuator2, Actuator9, Actuator10, Actuator29, Actuator65]
position: [0.04652482271194458, -0.42852783203125, -0.14337158203125, -0.084228515625, 0.2775110602378845, -0.08367919921875]
velocity: []
effort: []
---
header: 
  seq: 9190
  stamp: 
    secs: 1602495494
    nsecs: 990532538
  frame_id: ''
name: [Actuator1, Actuator2, Actuator9, Actuator10, Actuator29, Actuator65]
position: [0.04677218198776245, -0.4285888671875, -0.14361572265625, -0.08428955078125, 0.2776948809623718, -0.08343505859375]
velocity: []
effort: []
---
header: 
  seq: 9191
  stamp: 
    secs: 1602495495
    nsecs:    497407
  frame_id: ''
name: [Actuator1, Actuator2, Actuator9, Actuator10, Actuator29, Actuator65]
position: [0.0464630126953125, -0.4285888671875, -0.14361572265625, -0.08416748046875, 0.2775723338127136, -0.08343505859375]
velocity: []
effort: []
---
header: 
  seq: 9192
  stamp: 
    secs: 1602495495
    nsecs:  10569850
  frame_id: ''
name: [Actuator1, Actuator2, Actuator9, Actuator10, Actuator29, Actuator65]
position: [0.04652482271194458, -0.4285888671875, -0.1435546875, -0.08441162109375, 0.2775110602378845, -0.0836181640625]
velocity: []
effort: []
---
header: 
  seq: 9193
  stamp: 
    secs: 1602495495
    nsecs:  20481392
  frame_id: ''
name: [Actuator1, Actuator2, Actuator9, Actuator10, Actuator29, Actuator65]
position: [0.04671037197113037, -0.4285888671875, -0.14361572265625, -0.08428955078125, 0.27763354778289795, -0.08349609375]
velocity: []
effort: []
---
header: 
  seq: 9194
  stamp: 
    secs: 1602495495
    nsecs:  30546922
  frame_id: ''
name: [Actuator1, Actuator2, Actuator9, Actuator10, Actuator29, Actuator65]
position: [0.04677218198776245, -0.428466796875, -0.1435546875, -0.08428955078125, 0.2776948809623718, -0.08355712890625]
velocity: []
effort: []
---
header: 
  seq: 9195
  stamp: 
    secs: 1602495495
    nsecs:  40450881
  frame_id: ''
name: [Actuator1, Actuator2, Actuator9, Actuator10, Actuator29, Actuator65]
position: [0.046586692333221436, -0.4287109375, -0.14361572265625, -0.08428955078125, 0.2778173089027405, -0.08343505859375]
velocity: []
effort: []
---
header: 
  seq: 9196
  stamp: 
    secs: 1602495495
    nsecs:  50549060
  frame_id: ''
name: [Actuator1, Actuator2, Actuator9, Actuator10, Actuator29, Actuator65]
position: [0.04640120267868042, -0.4285888671875, -0.1436767578125, -0.084228515625, 0.2776948809623718, -0.08355712890625]
velocity: []
effort: []
---
header: 
  seq: 9197
  stamp: 
    secs: 1602495495
    nsecs:  60534272
  frame_id: ''
name: [Actuator1, Actuator2, Actuator9, Actuator10, Actuator29, Actuator65]
position: [0.046339452266693115, -0.42864990234375, -0.14361572265625, -0.08428955078125, 0.2775110602378845, -0.08355712890625]
velocity: []
effort: []
---
header: 
  seq: 9198
  stamp: 
    secs: 1602495495
    nsecs:  70539252
  frame_id: ''
name: [Actuator1, Actuator2, Actuator9, Actuator10, Actuator29, Actuator65]
position: [0.04652482271194458, -0.4285888671875, -0.14373779296875, -0.08428955078125, 0.27763354778289795, -0.08343505859375]
velocity: []
effort: []
---
header: 
  seq: 9199
  stamp: 
    secs: 1602495495
    nsecs:  80629851
  frame_id: ''
name: [Actuator1, Actuator2, Actuator9, Actuator10, Actuator29, Actuator65]
position: [0.04664844274520874, -0.42852783203125, -0.1435546875, -0.08428955078125, 0.2775110602378845, -0.08343505859375]
velocity: []
effort: []
---
header: 
  seq: 9200
  stamp: 
    secs: 1602495495
    nsecs:  90573412
  frame_id: ''
name: [Actuator1, Actuator2, Actuator9, Actuator10, Actuator29, Actuator65]
position: [0.04664844274520874, -0.4285888671875, -0.1436767578125, -0.08447265625, 0.2776948809623718, -0.08343505859375]
velocity: []
effort: []
---
header: 
  seq: 9201
  stamp: 
    secs: 1602495495
    nsecs: 100519784
  frame_id: ''
name: [Actuator1, Actuator2, Actuator9, Actuator10, Actuator29, Actuator65]
position: [0.046586692333221436, -0.42877197265625, -0.1436767578125, -0.0843505859375, 0.2778173089027405, -0.08355712890625]
velocity: []
effort: []
---
header: 
  seq: 9202
  stamp: 
    secs: 1602495495
    nsecs: 110603318
  frame_id: ''
name: [Actuator1, Actuator2, Actuator9, Actuator10, Actuator29, Actuator65]
position: [0.04652482271194458, -0.42864990234375, -0.14373779296875, -0.08441162109375, 0.2773885726928711, -0.08349609375]
velocity: []
effort: []
---
header: 
  seq: 9203
  stamp: 
    secs: 1602495495
    nsecs: 120597684
  frame_id: ''
name: [Actuator1, Actuator2, Actuator9, Actuator10, Actuator29, Actuator65]
position: [0.0464630126953125, -0.428466796875, -0.14349365234375, -0.084228515625, 0.2775110602378845, -0.08349609375]
velocity: []
effort: []
---
header: 
  seq: 9204
  stamp: 
    secs: 1602495495
    nsecs: 130588990
  frame_id: ''
name: [Actuator1, Actuator2, Actuator9, Actuator10, Actuator29, Actuator65]
position: [0.04664844274520874, -0.4285888671875, -0.1436767578125, -0.08428955078125, 0.27763354778289795, -0.08349609375]
velocity: []
effort: []
---
header: 
  seq: 9205
  stamp: 
    secs: 1602495495
    nsecs: 140566639
  frame_id: ''
name: [Actuator1, Actuator2, Actuator9, Actuator10, Actuator29, Actuator65]
position: [0.04671037197113037, -0.42852783203125, -0.143310546875, -0.084228515625, 0.27763354778289795, -0.08355712890625]
velocity: []
effort: []
---
header: 
  seq: 9206
  stamp: 
    secs: 1602495495
    nsecs: 150576027
  frame_id: ''
name: [Actuator1, Actuator2, Actuator9, Actuator10, Actuator29, Actuator65]
position: [0.04664844274520874, -0.42852783203125, -0.1435546875, -0.08428955078125, 0.2775723338127136, -0.08349609375]
velocity: []
effort: []
---
header: 
  seq: 9207
  stamp: 
    secs: 1602495495
    nsecs: 160494711
  frame_id: ''
name: [Actuator1, Actuator2, Actuator9, Actuator10, Actuator29, Actuator65]
position: [0.046586692333221436, -0.42852783203125, -0.14361572265625, -0.08453369140625, 0.2775110602378845, -0.08331298828125]
velocity: []
effort: []
---
header: 
  seq: 9208
  stamp: 
    secs: 1602495495
    nsecs: 170579878
  frame_id: ''
name: [Actuator1, Actuator2, Actuator9, Actuator10, Actuator29, Actuator65]
position: [0.04652482271194458, -0.4285888671875, -0.14373779296875, -0.08428955078125, 0.27763354778289795, -0.08349609375]
velocity: []
effort: []
---
header: 
  seq: 9209
  stamp: 
    secs: 1602495495
    nsecs: 180441253
  frame_id: ''
name: [Actuator1, Actuator2, Actuator9, Actuator10, Actuator29, Actuator65]
position: [0.04652482271194458, -0.42852783203125, -0.143310546875, -0.08428955078125, 0.2775110602378845, -0.08349609375]
velocity: []
effort: []
---
header: 
  seq: 9210
  stamp: 
    secs: 1602495495
    nsecs: 190580296
  frame_id: ''
name: [Actuator1, Actuator2, Actuator9, Actuator10, Actuator29, Actuator65]
position: [0.0464630126953125, -0.428466796875, -0.14349365234375, -0.0843505859375, 0.27763354778289795, -0.08355712890625]
velocity: []
effort: []
---
header: 
  seq: 9211
  stamp: 
    secs: 1602495495
    nsecs: 200534249
  frame_id: ''
name: [Actuator1, Actuator2, Actuator9, Actuator10, Actuator29, Actuator65]
position: [0.04652482271194458, -0.42852783203125, -0.1435546875, -0.08416748046875, 0.27763354778289795, -0.0836181640625]
velocity: []
effort: []
---
header: 
  seq: 9212
  stamp: 
    secs: 1602495495
    nsecs: 210578869
  frame_id: ''
name: [Actuator1, Actuator2, Actuator9, Actuator10, Actuator29, Actuator65]
position: [0.046586692333221436, -0.42864990234375, -0.1434326171875, -0.08428955078125, 0.2776948809623718, -0.08349609375]
velocity: []
effort: []
---
header: 
  seq: 9213
  stamp: 
    secs: 1602495495
    nsecs: 220531065
  frame_id: ''
name: [Actuator1, Actuator2, Actuator9, Actuator10, Actuator29, Actuator65]
position: [0.046586692333221436, -0.42852783203125, -0.143310546875, -0.084228515625, 0.2775723338127136, -0.08343505859375]
velocity: []
effort: []
---
header: 
  seq: 9214
  stamp: 
    secs: 1602495495
    nsecs: 230453298
  frame_id: ''
name: [Actuator1, Actuator2, Actuator9, Actuator10, Actuator29, Actuator65]
position: [0.04652482271194458, -0.4285888671875, -0.14337158203125, -0.08416748046875, 0.2776948809623718, -0.08349609375]
velocity: []
effort: []
---
header: 
  seq: 9215
  stamp: 
    secs: 1602495495
    nsecs: 240538188
  frame_id: ''
name: [Actuator1, Actuator2, Actuator9, Actuator10, Actuator29, Actuator65]
position: [0.04664844274520874, -0.4285888671875, -0.14337158203125, -0.08441162109375, 0.2777560353279114, -0.0836181640625]
velocity: []
effort: []
---
header: 
  seq: 9216
  stamp: 
    secs: 1602495495
    nsecs: 250585159
  frame_id: ''
name: [Actuator1, Actuator2, Actuator9, Actuator10, Actuator29, Actuator65]
position: [0.04664844274520874, -0.428466796875, -0.1434326171875, -0.0843505859375, 0.27763354778289795, -0.08355712890625]
velocity: []
effort: []
---
header: 
  seq: 9217
  stamp: 
    secs: 1602495495
    nsecs: 260488844
  frame_id: ''
name: [Actuator1, Actuator2, Actuator9, Actuator10, Actuator29, Actuator65]
position: [0.046586692333221436, -0.428466796875, -0.1435546875, -0.08447265625, 0.27763354778289795, -0.08349609375]
velocity: []
effort: []
---
header: 
  seq: 9218
  stamp: 
    secs: 1602495495
    nsecs: 270554289
  frame_id: ''
name: [Actuator1, Actuator2, Actuator9, Actuator10, Actuator29, Actuator65]
position: [0.04664844274520874, -0.428466796875, -0.14361572265625, -0.0843505859375, 0.2776948809623718, -0.08349609375]
velocity: []
effort: []
---
header: 
  seq: 9219
  stamp: 
    secs: 1602495495
    nsecs: 280542391
  frame_id: ''
name: [Actuator1, Actuator2, Actuator9, Actuator10, Actuator29, Actuator65]
position: [0.04640120267868042, -0.4285888671875, -0.14361572265625, -0.0841064453125, 0.27763354778289795, -0.0836181640625]
velocity: []
effort: []
---
header: 
  seq: 9220
  stamp: 
    secs: 1602495495
    nsecs: 290569091
  frame_id: ''
name: [Actuator1, Actuator2, Actuator9, Actuator10, Actuator29, Actuator65]
position: [0.046586692333221436, -0.42864990234375, -0.1436767578125, -0.08441162109375, 0.2776948809623718, -0.08355712890625]
velocity: []
effort: []
---
header: 
  seq: 9221
  stamp: 
    secs: 1602495495
    nsecs: 300479127
  frame_id: ''
name: [Actuator1, Actuator2, Actuator9, Actuator10, Actuator29, Actuator65]
position: [0.04671037197113037, -0.428466796875, -0.1434326171875, -0.08428955078125, 0.2776948809623718, -0.08355712890625]
velocity: []
effort: []
---
header: 
  seq: 9222
  stamp: 
    secs: 1602495495
    nsecs: 310538819
  frame_id: ''
name: [Actuator1, Actuator2, Actuator9, Actuator10, Actuator29, Actuator65]
position: [0.04652482271194458, -0.4287109375, -0.1435546875, -0.08428955078125, 0.2778173089027405, -0.08343505859375]
velocity: []
effort: []
---
header: 
  seq: 9223
  stamp: 
    secs: 1602495495
    nsecs: 320533002
  frame_id: ''
name: [Actuator1, Actuator2, Actuator9, Actuator10, Actuator29, Actuator65]
position: [0.04677218198776245, -0.42852783203125, -0.1435546875, -0.08453369140625, 0.2775723338127136, -0.08343505859375]
velocity: []
effort: []
---
header: 
  seq: 9224
  stamp: 
    secs: 1602495495
    nsecs: 330531546
  frame_id: ''
name: [Actuator1, Actuator2, Actuator9, Actuator10, Actuator29, Actuator65]
position: [0.04664844274520874, -0.4287109375, -0.1435546875, -0.08441162109375, 0.2775110602378845, -0.08349609375]
velocity: []
effort: []
---
header: 
  seq: 9225
  stamp: 
    secs: 1602495495
    nsecs: 340544879
  frame_id: ''
name: [Actuator1, Actuator2, Actuator9, Actuator10, Actuator29, Actuator65]
position: [0.04689580202102661, -0.4285888671875, -0.1434326171875, -0.08465576171875, 0.2778173089027405, -0.08355712890625]
velocity: []
effort: []
---
header: 
  seq: 9226
  stamp: 
    secs: 1602495495
    nsecs: 350571200
  frame_id: ''
name: [Actuator1, Actuator2, Actuator9, Actuator10, Actuator29, Actuator65]
position: [0.04720503091812134, -0.4285888671875, -0.1435546875, -0.08538818359375, 0.2776948809623718, -0.08355712890625]
velocity: []
effort: []
---
header: 
  seq: 9227
  stamp: 
    secs: 1602495495
    nsecs: 360533713
  frame_id: ''
name: [Actuator1, Actuator2, Actuator9, Actuator10, Actuator29, Actuator65]
position: [0.04720503091812134, -0.4285888671875, -0.14337158203125, -0.08538818359375, 0.27763354778289795, -0.0836181640625]
velocity: []
effort: []
---
header: 
  seq: 9228
  stamp: 
    secs: 1602495495
    nsecs: 370549444
  frame_id: ''
name: [Actuator1, Actuator2, Actuator9, Actuator10, Actuator29, Actuator65]
position: [0.04788529872894287, -0.4285888671875, -0.1435546875, -0.08538818359375, 0.27763354778289795, -0.083740234375]
velocity: []
effort: []
---
header: 
  seq: 9229
  stamp: 
    secs: 1602495495
    nsecs: 380531497
  frame_id: ''
name: [Actuator1, Actuator2, Actuator9, Actuator10, Actuator29, Actuator65]
position: [0.04899871349334717, -0.4287109375, -0.14349365234375, -0.08551025390625, 0.2778173089027405, -0.08355712890625]
velocity: []
effort: []
---
header: 
  seq: 9230
  stamp: 
    secs: 1602495495
    nsecs: 390543523
  frame_id: ''
name: [Actuator1, Actuator2, Actuator9, Actuator10, Actuator29, Actuator65]
position: [0.04998880624771118, -0.4285888671875, -0.14349365234375, -0.0859375, 0.2775723338127136, -0.083740234375]
velocity: []
effort: []
---
header: 
  seq: 9231
  stamp: 
    secs: 1602495495
    nsecs: 400506931
  frame_id: ''
name: [Actuator1, Actuator2, Actuator9, Actuator10, Actuator29, Actuator65]
position: [0.05073142051696777, -0.4285888671875, -0.1435546875, -0.08575439453125, 0.2776948809623718, -0.08367919921875]
velocity: []
effort: []
---
header: 
  seq: 9232
  stamp: 
    secs: 1602495495
    nsecs: 410529007
  frame_id: ''
name: [Actuator1, Actuator2, Actuator9, Actuator10, Actuator29, Actuator65]
position: [0.05073142051696777, -0.4283447265625, -0.14361572265625, -0.0858154296875, 0.2775110602378845, -0.0836181640625]
velocity: []
effort: []
---
header: 
  seq: 9233
  stamp: 
    secs: 1602495495
    nsecs: 420495289
  frame_id: ''
name: [Actuator1, Actuator2, Actuator9, Actuator10, Actuator29, Actuator65]
position: [0.050793349742889404, -0.428466796875, -0.1436767578125, -0.086181640625, 0.2775110602378845, -0.083740234375]
velocity: []
effort: []
---
header: 
  seq: 9234
  stamp: 
    secs: 1602495495
    nsecs: 430593208
  frame_id: ''
name: [Actuator1, Actuator2, Actuator9, Actuator10, Actuator29, Actuator65]
position: [0.05085533857345581, -0.42864990234375, -0.143798828125, -0.08624267578125, 0.2774498462677002, -0.083740234375]
velocity: []
effort: []
---
header: 
  seq: 9235
  stamp: 
    secs: 1602495495
    nsecs: 440579920
  frame_id: ''
name: [Actuator1, Actuator2, Actuator9, Actuator10, Actuator29, Actuator65]
position: [0.05073142051696777, -0.42840576171875, -0.14361572265625, -0.08624267578125, 0.2774498462677002, -0.08355712890625]
velocity: []
effort: []
---
header: 
  seq: 9236
  stamp: 
    secs: 1602495495
    nsecs: 450580612
  frame_id: ''
name: [Actuator1, Actuator2, Actuator9, Actuator10, Actuator29, Actuator65]
position: [0.05085533857345581, -0.4285888671875, -0.1435546875, -0.0863037109375, 0.2774498462677002, -0.08355712890625]
velocity: []
effort: []
---
header: 
  seq: 9237
  stamp: 
    secs: 1602495495
    nsecs: 460571796
  frame_id: ''
name: [Actuator1, Actuator2, Actuator9, Actuator10, Actuator29, Actuator65]
position: [0.050793349742889404, -0.42864990234375, -0.143798828125, -0.0865478515625, 0.277327299118042, -0.0836181640625]
velocity: []
effort: []
---
header: 
  seq: 9238
  stamp: 
    secs: 1602495495
    nsecs: 470568460
  frame_id: ''
name: [Actuator1, Actuator2, Actuator9, Actuator10, Actuator29, Actuator65]
position: [0.05085533857345581, -0.42852783203125, -0.1436767578125, -0.08636474609375, 0.2774498462677002, -0.08349609375]
velocity: []
effort: []
---
header: 
  seq: 9239
  stamp: 
    secs: 1602495495
    nsecs: 480534473
  frame_id: ''
name: [Actuator1, Actuator2, Actuator9, Actuator10, Actuator29, Actuator65]
position: [0.05054575204849243, -0.42852783203125, -0.143798828125, -0.08648681640625, 0.2777560353279114, -0.08331298828125]
velocity: []
effort: []
---
header: 
  seq: 9240
  stamp: 
    secs: 1602495495
    nsecs: 490544945
  frame_id: ''
name: [Actuator1, Actuator2, Actuator9, Actuator10, Actuator29, Actuator65]
position: [0.05066949129104614, -0.428466796875, -0.14373779296875, -0.08624267578125, 0.27763354778289795, -0.08367919921875]
velocity: []
effort: []
---
header: 
  seq: 9241
  stamp: 
    secs: 1602495495
    nsecs: 500566035
  frame_id: ''
name: [Actuator1, Actuator2, Actuator9, Actuator10, Actuator29, Actuator65]
position: [0.050421953201293945, -0.42864990234375, -0.14361572265625, -0.08612060546875, 0.2778173089027405, -0.0836181640625]
velocity: []
effort: []
---
header: 
  seq: 9242
  stamp: 
    secs: 1602495495
    nsecs: 510543590
  frame_id: ''
name: [Actuator1, Actuator2, Actuator9, Actuator10, Actuator29, Actuator65]
position: [0.05054575204849243, -0.42852783203125, -0.1436767578125, -0.08612060546875, 0.2777560353279114, -0.08355712890625]
velocity: []
effort: []
---
header: 
  seq: 9243
  stamp: 
    secs: 1602495495
    nsecs: 520495526
  frame_id: ''
name: [Actuator1, Actuator2, Actuator9, Actuator10, Actuator29, Actuator65]
position: [0.050483882427215576, -0.42852783203125, -0.14361572265625, -0.086181640625, 0.278001070022583, -0.08355712890625]
velocity: []
effort: []
---
header: 
  seq: 9244
  stamp: 
    secs: 1602495495
    nsecs: 530532173
  frame_id: ''
name: [Actuator1, Actuator2, Actuator9, Actuator10, Actuator29, Actuator65]
position: [0.050421953201293945, -0.42877197265625, -0.14373779296875, -0.0853271484375, 0.278001070022583, -0.0836181640625]
velocity: []
effort: []
---
header: 
  seq: 9245
  stamp: 
    secs: 1602495495
    nsecs: 540509908
  frame_id: ''
name: [Actuator1, Actuator2, Actuator9, Actuator10, Actuator29, Actuator65]
position: [0.050298213958740234, -0.42864990234375, -0.14361572265625, -0.08502197265625, 0.2777560353279114, -0.08349609375]
velocity: []
effort: []
---
header: 
  seq: 9246
  stamp: 
    secs: 1602495495
    nsecs: 550525703
  frame_id: ''
name: [Actuator1, Actuator2, Actuator9, Actuator10, Actuator29, Actuator65]
position: [0.05017441511154175, -0.4287109375, -0.1436767578125, -0.0850830078125, 0.2778785228729248, -0.083740234375]
velocity: []
effort: []
---
header: 
  seq: 9247
  stamp: 
    secs: 1602495495
    nsecs: 560537658
  frame_id: ''
name: [Actuator1, Actuator2, Actuator9, Actuator10, Actuator29, Actuator65]
position: [0.05017441511154175, -0.4287109375, -0.14373779296875, -0.0850830078125, 0.2777560353279114, -0.08355712890625]
velocity: []
effort: []
---
header: 
  seq: 9248
  stamp: 
    secs: 1602495495
    nsecs: 570532904
  frame_id: ''
name: [Actuator1, Actuator2, Actuator9, Actuator10, Actuator29, Actuator65]
